{"type": "FeatureCollection", "features": [{"type": "Feature", "id": 1282934519, "geometry": {"type": "Point", "coordinates": [-113.628845, 53.633239]}, "properties": {"title": "St. Albert, Alberta, Canada", "marker-color": "#3cc954"}}, {"type": "Feature", "id": 626141158, "geometry": {"type": "Point", "coordinates": [-113.491241, 53.546205]}, "properties": {"title": "Edmonton, Alberta, Canada"}}, {"type": "Feature", "id": 1518176376, "geometry": {"type": "Point", "coordinates": [-113.296631, 53.525696]}, "properties": {"title": "Sherwood Park, Alberta, Canada"}}, {"type": "Feature", "id": 2844394185, "geometry": {"type": "Point", "coordinates": [-113.415143, 53.35255]}, "properties": {"title": "Beaumont, Alberta, Canada"}}, {"type": "Feature", "id": 1378620672, "geometry": {"type": "Point", "coordinates": [-113.551168, 53.260782]}, "properties": {"title": "City of Leduc, Alberta, Canada"}}, {"type": "Feature", "id": 1606663786, "geometry": {"type": "Point", "coordinates": [-113.903503, 53.545204]}, "properties": {"title": "City of Spruce Grove, Alberta, Canada"}}, {"type": "Feature", "id": 58171318, "geometry": {"type": "Point", "coordinates": [-114.004873, 53.528986]}, "properties": {"title": "Stony Plain, Alberta, Canada"}}, {"type": "Feature", "id": 4069425590, "geometry": {"type": "Point", "coordinates": [-113.650662, 53.800928]}, "properties": {"title": "Morinville, Alberta, Canada"}}, {"type": "Feature", "id": 2386640845, "geometry": {"type": "Point", "coordinates": [-113.412372, 53.836521]}, "properties": {"title": "Bon Accord, Alberta, Canada"}}, {"type": "Feature", "id": 1439611117, "geometry": {"type": "Point", "coordinates": [-113.328266, 53.824226]}, "properties": {"title": "Town of Gibbons, Alberta, Canada"}}, {"type": "Feature", "id": 2681641879, "geometry": {"type": "Point", "coordinates": [-113.214894, 53.712857]}, "properties": {"title": "Fort Saskatchewan, Alberta, Canada"}}, {"type": "Feature", "id": 3428051943, "geometry": {"type": "Point", "coordinates": [-113.731699, 53.363354]}, "properties": {"title": "Devon, Alberta, Canada"}}], "groups": [], "markers": [], "properties": {}}